{"city_PR": [{"city": "Adjuntas, PR", "latitude": 18.1634848, "longitude": -66.723158}, {"city": "Aguada, PR", "latitude": 18.3801579, "longitude": -67.188704}, {"city": "Aguadilla, PR", "latitude": 18.4274454, "longitude": -67.1540698}, {"city": "Aguas Buenas, PR", "latitude": 18.2568989, "longitude": -66.1029442}, {"city": "Aibonito, PR", "latitude": 18.140702, "longitude": -66.2596811}, {"city": "Añasco, PR", "latitude": 18.2854476, "longitude": -67.1402935}, {"city": "Arecibo, PR", "latitude": 18.444247, "longitude": -66.6464068}, {"city": "Arroyo, PR", "latitude": 17.9925084, "longitude": -66.05458229999999}, {"city": "Barceloneta, PR", "latitude": 18.4547057, "longitude": -66.5383891}, {"city": "Barranquitas, PR", "latitude": 18.1866242, "longitude": -66.3062802}, {"city": "Bayamón, PR", "latitude": 18.389396, "longitude": -66.1653224}, {"city": "Cabo Rojo, PR", "latitude": 18.0875347, "longitude": -67.14699639999999}, {"city": "Caguas, PR", "latitude": 18.2387995, "longitude": -66.035249}, {"city": "Camuy, PR", "latitude": 18.451728, "longitude": -66.85357490000001}, {"city": "Canóvanas, PR", "latitude": 18.3748748, "longitude": -65.8997533}, {"city": "Carolina, PR", "latitude": 18.3736316, "longitude": -65.9630925}, {"city": "Cataño, PR", "latitude": 18.4465355, "longitude": -66.1355775}, {"city": "Cayey, PR", "latitude": 18.1119051, "longitude": -66.166}, {"city": "Ceiba, PR", "latitude": 18.2619141, "longitude": -65.64810589999999}, {"city": "Ciales, PR", "latitude": 18.3353252, "longitude": -66.4680716}, {"city": "Cidra, PR", "latitude": 18.1757914, "longitude": -66.1612779}, {"city": "Coamo, PR", "latitude": 18.0799616, "longitude": -66.35794729999999}, {"city": "Comerio, PR", "latitude": 18.2183658, "longitude": -66.2263048}, {"city": "Corozal, PR", "latitude": 18.3410116, "longitude": -66.3174271}, {"city": "Culebra, PR", "latitude": 18.310394, "longitude": -65.3030705}, {"city": "Dorado, PR", "latitude": 18.4588347, "longitude": -66.2676683}, {"city": "Fajardo, PR", "latitude": 18.3257869, "longitude": -65.6523838}, {"city": "Florida, PR", "latitude": 18.3630091, "longitude": -66.5581092}, {"city": "Guánica, PR", "latitude": 17.9725145, "longitude": -66.9086264}, {"city": "Guayama, PR", "latitude": 17.9841328, "longitude": -66.1137767}, {"city": "Guayanilla, PR", "latitude": 18.0373245, "longitude": -66.7962869}, {"city": "Guaynabo, PR", "latitude": 18.3615548, "longitude": -66.11106819999999}, {"city": "Gurabo, PR", "latitude": 18.2543987, "longitude": -65.9729421}, {"city": "Hatillo, PR", "latitude": 18.4284642, "longitude": -66.78753209999999}, {"city": "Hormigueros, PR", "latitude": 18.1334638, "longitude": -67.1128123}, {"city": "Humacao, PR", "latitude": 18.1551337, "longitude": -65.8203943}, {"city": "Isabela, PR", "latitude": 18.4703856, "longitude": -67.0242062}, {"city": "Jayuya, PR", "latitude": 18.2185674, "longitude": -66.5915617}, {"city": "Juana Díaz, PR", "latitude": 18.0534372, "longitude": -66.5075079}, {"city": "Juncos, PR", "latitude": 18.2274558, "longitude": -65.92099700000001}, {"city": "Lajas, PR", "latitude": 18.049962, "longitude": -67.0593449}, {"city": "Lares, PR", "latitude": 18.2946746, "longitude": -66.8771211}, {"city": "Las Marías, PR", "latitude": 18.2520177, "longitude": -66.98960459999999}, {"city": "Las Piedras, PR", "latitude": 18.1855753, "longitude": -65.87362449999999}, {"city": "Loíza, PR", "latitude": 18.4298388, "longitude": -65.87745}, {"city": "Luquillo, PR", "latitude": 18.3789857, "longitude": -65.7206559}, {"city": "Manatí, PR", "latitude": 18.433005, "longitude": -66.4758583}, {"city": "Maricao, PR", "latitude": 18.1807902, "longitude": -66.9799001}, {"city": "Maunabo, PR", "latitude": 18.0071885, "longitude": -65.8993289}, {"city": "Mayagüez, PR", "latitude": 18.2013452, "longitude": -67.1451549}, {"city": "Moca, PR", "latitude": 18.3946688, "longitude": -67.1132356}, {"city": "Morovis, PR", "latitude": 18.325785, "longitude": -66.4065592}, {"city": "Naguabo, PR", "latitude": 18.2116247, "longitude": -65.7348841}, {"city": "Naranjito, PR", "latitude": 18.3007861, "longitude": -66.2448904}, {"city": "Orocovis, PR", "latitude": 18.2269224, "longitude": -66.3911686}, {"city": "Patillas, PR", "latitude": 18.0037381, "longitude": -66.0134059}, {"city": "Peñuelas, PR", "latitude": 18.0633577, "longitude": -66.7273896}, {"city": "Ponce, PR", "latitude": 18.0110768, "longitude": -66.6140616}, {"city": "Quebradillas, PR", "latitude": 18.470959, "longitude": -66.93425789999999}, {"city": "Rincón, PR", "latitude": 18.3401514, "longitude": -67.24994590000001}, {"city": "Río Grande, PR", "latitude": 18.3786196, "longitude": -65.83933379999999}, {"city": "Sabana Grande, PR", "latitude": 18.0777392, "longitude": -66.9604549}, {"city": "Salinas, PR", "latitude": 18.0022251, "longitude": -66.2605176}, {"city": "San Germán, PR", "latitude": 18.0807082, "longitude": -67.0411096}, {"city": "San Juan, PR", "latitude": 18.4655394, "longitude": -66.1057355}, {"city": "San Lorenzo, PR", "latitude": 18.189402, "longitude": -65.9609971}, {"city": "San Sebastián, PR", "latitude": 18.3354756, "longitude": -66.9946787}, {"city": "Santa Isabel, PR", "latitude": 18.0046774, "longitude": -66.3897939}, {"city": "Toa Alta, PR", "latitude": 18.3882823, "longitude": -66.2482237}, {"city": "Toa Baja, PR", "latitude": 18.4444709, "longitude": -66.2543293}, {"city": "Trujillo Alto, PR", "latitude": 18.3563169, "longitude": -66.0033838}, {"city": "Utuado, PR", "latitude": 18.2655095, "longitude": -66.70045189999999}, {"city": "Vega Alta, PR", "latitude": 18.4315524, "longitude": -66.3365098}, {"city": "Vega Baja, PR", "latitude": 18.4469223, "longitude": -66.3973145}, {"city": "Vieques, PR", "latitude": 18.1262854, "longitude": -65.44009849999999}, {"city": "Villalba, PR", "latitude": 18.1217554, "longitude": -66.4985787}, {"city": "Yabucoa, PR", "latitude": 18.0505201, "longitude": -65.8793288}, {"city": "Yauco, PR", "latitude": 18.034964, "longitude": -66.84989829999999}]}